Salta 2739, CP: 1621, Benavidez

{
    "results": [{
            "address_components": [{
                    "long_name": "Salta",
                    "short_name": "Salta",
                    "types": [
                        "locality",
                        "political"
                    ]
                },
                {
                    "long_name": "Capital Department",
                    "short_name": "Capital Department",
                    "types": [
                        "administrative_area_level_2",
                        "political"
                    ]
                },
                {
                    "long_name": "Salta Province",
                    "short_name": "Salta Province",
                    "types": [
                        "administrative_area_level_1",
                        "political"
                    ]
                },
                {
                    "long_name": "Argentina",
                    "short_name": "AR",
                    "types": [
                        "country",
                        "political"
                    ]
                }
            ],
            "formatted_address": "Salta, Salta Province, Argentina",
            "geometry": {
                "bounds": {
                    "northeast": {
                        "lat": -24.7094636,
                        "lng": -65.3554771
                    },
                    "southwest": {
                        "lat": -24.882706,
                        "lng": -65.5057802
                    }
                },
                "location": {
                    "lat": -24.7821269,
                    "lng": -65.42319759999999
                },
                "location_type": "APPROXIMATE",
                "viewport": {
                    "northeast": {
                        "lat": -24.7094636,
                        "lng": -65.3554771
                    },
                    "southwest": {
                        "lat": -24.882706,
                        "lng": -65.5057802
                    }
                }
            },
            "partial_match": true,
            "place_id": "ChIJ-bdRUaPDG5QRBvKH1SyZzaU",
            "types": [
                "locality",
                "political"
            ]
        },
        {
            "address_components": [{
                    "long_name": "Benavidez",
                    "short_name": "Benavidez",
                    "types": [
                        "locality",
                        "political"
                    ]
                },
                {
                    "long_name": "Tigre Partido",
                    "short_name": "Tigre Partido",
                    "types": [
                        "administrative_area_level_2",
                        "political"
                    ]
                },
                {
                    "long_name": "Buenos Aires Province",
                    "short_name": "Buenos Aires Province",
                    "types": [
                        "administrative_area_level_1",
                        "political"
                    ]
                },
                {
                    "long_name": "Argentina",
                    "short_name": "AR",
                    "types": [
                        "country",
                        "political"
                    ]
                }
            ],
            "formatted_address": "Benavidez, Buenos Aires Province, Argentina",
            "geometry": {
                "bounds": {
                    "northeast": {
                        "lat": -34.3755631,
                        "lng": -58.6469025
                    },
                    "southwest": {
                        "lat": -34.4361383,
                        "lng": -58.73447669999999
                    }
                },
                "location": {
                    "lat": -34.4151715,
                    "lng": -58.6867547
                },
                "location_type": "APPROXIMATE",
                "viewport": {
                    "northeast": {
                        "lat": -34.3755631,
                        "lng": -58.6469025
                    },
                    "southwest": {
                        "lat": -34.4361383,
                        "lng": -58.73447669999999
                    }
                }
            },
            "partial_match": true,
            "place_id": "ChIJOWs1ApuhvJURq1Qux6afRc4",
            "types": [
                "locality",
                "political"
            ]
        }
    ],
    "status": "OK"
}